[
    {
        "id": 0,
        "name": "Curve Theatre",
        "position": {
            "lat": 52.6356481,
            "lng": -1.1295404
        },
        "foursquareId": "4b4f211cf964a520f7fa26e3"
    },
    {
        "id": 1,
        "name": "Highcross Shopping Centre",
        "position": {
            "lat": 52.6366703,
            "lng": -1.1386005
        },
        "foursquareId": "4b5afb30f964a52041dd28e3"
    },
    {
        "id": 2,
        "name": "King Power Stadium",
        "position": {
            "lat": 52.6203694,
            "lng": -1.1443782
        },
        "foursquareId": "4b6ae87ef964a52055e62be3"
    },
    {
        "id": 3,
        "name": "New Walk Museum",
        "position": {
            "lat": 52.6289496,
            "lng": -1.127933
        },
        "foursquareId": "4b50c1b1f964a520243127e3"
    },
    {
        "id": 4,
        "name": "Leicester Train Station",
        "position": {
            "lat": 52.631192,
            "lng": -1.1273171
        },
        "foursquareId": "4b630b85f964a5208c5f2ae3"
    }
]